City,Cloudiness,Country,Date,Humidity,Lat,Lng,Max Temp,Wind Speed
Hilo,20,US,1612983720,68,19.7297,-155.09,71.01,5.75
Puerto Ayora,75,EC,1612983808,83,-0.7393,-90.3518,80.6,3.44
Dikson,94,RU,1612983808,89,73.5069,80.5464,-20.83,7.96
Atuona,2,PF,1612983808,75,-9.8,-139.0333,79.18,17.27
Kushiro,1,JP,1612983809,93,42.975,144.3747,15.8,4.43
San Rafael,81,AR,1612983608,45,-34.6177,-68.3301,76.23,8.03
Barrow,75,US,1612983809,69,71.2906,-156.7887,-22.0,10.36
Hobart,0,AU,1612983623,82,-42.8794,147.3294,53.6,10.36
Aklavik,0,CA,1612983809,68,68.2191,-135.0107,-29.2,4.61
Bambous Virieux,40,MU,1612983809,74,-20.3428,57.7575,80.6,11.5
Punta Arenas,0,CL,1612983809,55,-53.15,-70.9167,66.2,10.36
Zhenhaicun,90,CN,1612983809,94,24.2582,118.0905,59.0,4.47
Port Alfred,16,ZA,1612983809,93,-33.5906,26.891,73.99,1.99
Batagay-Alyta,26,RU,1612983809,88,67.8006,130.4114,-7.87,1.43
Vestmannaeyjar,40,IS,1612983809,81,63.4427,-20.2734,37.4,31.07
Naze,100,JP,1612983810,69,28.3667,129.4833,58.33,14.23
Bredasdorp,71,ZA,1612983810,77,-34.5322,20.0403,68.0,9.22
Chui,42,UY,1612983810,71,-33.6971,-53.4616,76.77,12.08
Nueva Loja,75,EC,1612983810,58,0.0847,-76.8828,91.4,5.75
Ribeira Grande,40,PT,1612983810,77,38.5167,-28.7,59.0,25.32
Kapaa,40,US,1612983806,49,22.0752,-159.319,73.4,14.97
Rikitea,52,PF,1612983810,72,-23.1203,-134.9692,79.05,11.23
Ellwangen,100,DE,1612983810,86,48.9616,10.1317,19.0,8.23
Hasaki,20,JP,1612983810,65,35.7333,140.8333,37.4,3.44
Busselton,3,AU,1612983810,97,-33.65,115.3333,55.0,8.59
Novobirilyussy,100,RU,1612983810,90,56.9514,90.6661,-5.84,5.93
Hithadhoo,47,MV,1612983811,76,-0.6,73.0833,82.06,11.36
Albany,100,US,1612983615,44,42.6001,-73.9662,28.99,3.0
Mishan,70,CN,1612983811,94,45.55,131.8833,10.17,6.29
Riviere-au-Renard,40,CA,1612983811,45,48.9957,-64.3971,19.4,12.66
Hermanus,6,ZA,1612983804,79,-34.4187,19.2345,70.0,4.0
New Norfolk,0,AU,1612983811,69,-42.7826,147.0587,52.0,2.64
Kiunga,100,PG,1612983811,98,-6.1219,141.2906,73.36,2.73
George Town,20,MY,1612983811,78,5.4112,100.3354,82.4,2.3
Ponta do Sol,73,PT,1612983811,79,32.6667,-17.1,61.0,3.0
Kichera,0,RU,1612983811,81,55.9375,110.0997,1.47,8.75
Bilibino,86,RU,1612983812,85,68.0546,166.4372,-8.95,2.59
Caohe,100,CN,1612983812,74,30.2297,115.4335,54.0,2.39
Bara,29,NG,1612983812,15,10.3744,10.7288,80.15,9.06
Ormara,100,PK,1612983660,51,25.2088,64.6357,72.61,8.1
Peniche,73,PT,1612983812,94,39.3558,-9.3811,59.0,11.99
Carberry,1,CA,1612983812,63,49.8689,-99.3602,-16.6,13.8
Broome,1,US,1612983812,45,42.2506,-75.833,25.0,6.91
Arrondissement de Bourges,90,FR,1612983812,86,47.25,2.4167,26.6,11.5
Gagra,42,GE,1612983812,87,43.3283,40.2239,50.0,2.24
Carnarvon,0,AU,1612983813,88,-24.8667,113.6333,71.6,24.16
Port Blair,0,IN,1612983813,69,11.6667,92.75,76.59,9.53
Kruisfontein,5,ZA,1612983813,84,-34.0033,24.7314,73.99,3.0
Geraldton,0,AU,1612983531,77,-28.7667,114.6,60.8,14.97
Te Anau,100,NZ,1612983588,86,-45.4167,167.7167,49.48,7.4
Mataura,100,NZ,1612983813,93,-46.1927,168.8643,49.26,11.88
Knysna,20,ZA,1612983813,88,-34.0363,23.0471,68.0,6.91
Nikolskoye,40,RU,1612983813,85,59.7035,30.7861,9.0,2.24
Itoman,75,JP,1612983813,88,26.1247,127.6694,64.4,11.5
Ilulissat,1,GL,1612983813,38,69.2167,-51.1,15.8,18.41
Praia,0,CV,1612983813,73,14.9215,-23.5087,71.6,23.02
Gritsovskiy,77,RU,1612983813,95,54.1376,38.1604,2.75,8.34
Alofi,100,NU,1612983808,100,-19.0595,-169.9187,77.0,3.44
Letterkenny,0,IE,1612983814,69,54.95,-7.7333,33.8,8.05
Merauke,100,ID,1612983814,91,-8.4667,140.3333,78.1,7.07
Zhuji,75,CN,1612983814,93,29.7188,120.2423,51.01,6.71
Maniitsoq,0,GL,1612983814,87,65.4167,-52.9,19.45,3.51
Bluff,100,NZ,1612983805,90,-46.6,168.3333,53.38,34.58
Dingle,45,PH,1612983814,88,10.9995,122.6711,75.11,1.99
Lebu,0,CL,1612983814,65,-37.6167,-73.65,68.95,7.0
Ushuaia,0,AR,1612983583,29,-54.8,-68.3,80.6,16.11
Puerto Baquerizo Moreno,90,EC,1612983815,100,-0.9,-89.6,77.0,5.75
Thompson,75,CA,1612983815,69,55.7435,-97.8558,-23.8,4.61
Jamestown,1,US,1612983675,63,42.097,-79.2353,25.0,5.75
Muros,100,ES,1612983815,84,42.7762,-9.0603,54.0,8.99
Tasiilaq,75,GL,1612983815,41,65.6145,-37.6368,14.0,2.3
Ternate,100,ID,1612983815,81,0.8,127.4,80.67,5.48
Hurricane,1,US,1612983815,35,37.1753,-113.2899,60.01,4.47
Matara,98,LK,1612983815,78,5.9485,80.5353,73.94,7.67
Cherskiy,0,RU,1612983816,85,68.75,161.3,-10.35,1.83
Camapuã,75,BR,1612983816,39,-19.5314,-54.0439,88.66,4.61
Manakara,100,MG,1612983816,88,-22.1333,48.0167,75.09,2.37
Saskylakh,0,RU,1612983816,83,71.9167,114.0833,-21.08,9.42
Nome,1,US,1612983816,45,64.5011,-165.4064,-9.4,9.22
Cape Town,0,ZA,1612983751,78,-33.9258,18.4232,72.0,17.27
Isangel,100,VU,1612983816,83,-19.55,169.2667,78.62,7.78
Leningradskiy,6,RU,1612983816,83,69.3833,178.4167,-28.48,10.47
Avarua,20,CK,1612983817,78,-21.2078,-159.775,82.4,10.36
Bereda,100,ES,1612983817,83,43.2686,-7.5406,50.0,5.01
Cayenne,75,GF,1612983608,94,4.9333,-52.3333,77.0,3.44
Abonnema,20,NG,1612983817,62,4.7084,6.7931,86.0,8.05
Antofagasta,0,CL,1612983566,56,-23.65,-70.4,73.4,10.36
Arraial do Cabo,40,BR,1612983611,73,-22.9661,-42.0278,78.8,13.8
Coquimbo,40,CL,1612983817,68,-29.9533,-71.3436,68.0,10.36
Salalah,0,OM,1612983817,25,17.0151,54.0924,78.8,6.91
Seoul,75,KR,1612983586,93,37.5683,126.9778,33.8,2.3
Hong Kong,97,HK,1612983733,87,22.2855,114.1577,62.01,6.11
Ostrovnoy,29,RU,1612983817,93,68.0531,39.5131,7.88,16.89
Maxixe,20,MZ,1612983817,69,-23.8597,35.3472,80.6,6.91
Kaitangata,69,NZ,1612983818,53,-46.2817,169.8464,55.99,17.0
Parabel',100,RU,1612983818,90,58.6978,81.4825,-9.65,8.5
Lagoa,90,PT,1612983788,68,39.05,-27.9833,58.17,33.8
Provideniya,0,RU,1612983818,79,64.3833,-173.3,-15.84,14.38
Krasnaya Gora,90,RU,1612983818,79,52.9995,31.6023,14.0,11.18
Hofn,100,IS,1612983818,76,64.2539,-15.2082,38.44,12.21
Tuatapere,100,NZ,1612983818,91,-46.1333,167.6833,50.85,15.7
Solnechnyy,36,RU,1612983818,87,50.7214,136.6319,-2.0,1.07
Xingyi,0,CN,1612983818,90,24.1877,102.817,40.89,1.97
Marabu,40,MY,1612983818,94,4.4148,114.0089,78.8,1.14
Kayiry,100,UA,1612983819,94,46.9454,33.7059,39.61,9.48
Grand Forks,75,US,1612983819,54,47.9417,-97.4337,-5.8,13.8
Nha Trang,20,VN,1612983819,78,12.25,109.1833,73.4,14.97
Yulara,40,AU,1612983819,58,-25.2406,130.9889,86.0,6.91
Uinskoye,0,RU,1612983819,86,56.8817,56.5813,-13.2,3.04
Nishihara,90,JP,1612983585,72,26.1842,127.7558,64.4,20.71
Vaini,100,TO,1612983814,86,-21.2,-175.2,79.59,13.96
Calama,20,CL,1612983632,28,-22.4667,-68.9333,73.4,23.02
Faanui,0,PF,1612983819,67,-16.4833,-151.75,81.23,10.96
Guía de Isora,75,ES,1612983819,72,28.2115,-16.7795,66.99,4.61
Coyhaique,0,CL,1612983820,25,-45.5752,-72.0662,91.4,9.22
East London,20,ZA,1612983821,88,-33.0153,27.9116,75.2,10.36
Guangyuan,85,CN,1612983821,83,32.442,105.823,43.0,1.39
Bethel,1,US,1612983821,46,41.3712,-73.414,32.0,9.22
Kumla,40,SE,1612983821,73,59.1277,15.1434,19.4,13.8
Yar-Sale,100,RU,1612983821,85,66.8333,70.8333,-23.15,13.47
Half Moon Bay,90,US,1612983822,76,37.4636,-122.4286,59.0,6.91
Haines Junction,0,CA,1612983536,67,60.7522,-137.5108,-40.0,1.23
San Cristobal,40,VE,1612983822,65,7.7669,-72.225,82.4,11.5
Rosetta,0,EG,1612983822,67,31.4044,30.4164,62.6,3.44
Soller,20,ES,1612983822,67,39.7662,2.7152,55.99,14.97
Kirakira,98,SB,1612983822,79,-10.4544,161.9205,79.12,3.51
Candeias,9,BR,1612983822,76,-20.7676,-45.2764,74.79,3.71
Kaeo,100,NZ,1612983822,96,-35.1,173.7833,62.01,5.01
Saint Paul Harbor,90,US,1612983822,81,57.79,-152.4072,37.4,18.41
Bengkulu,85,ID,1612983823,88,-3.8004,102.2655,75.24,4.18
Vanavara,48,RU,1612983823,89,60.34,102.2797,-11.97,3.49
Hutchinson,90,US,1612983823,67,38.0608,-97.9298,17.6,17.27
Cidreira,100,BR,1612983823,74,-30.1811,-50.2056,77.52,13.29
Río Gallegos,0,AR,1612983698,52,-51.6226,-69.2181,69.8,13.8
Moussoro,89,TD,1612983823,17,13.6408,16.4901,76.6,9.53
Umluj,92,SA,1612983823,49,25.0213,37.2685,77.68,7.83
Boden,0,SE,1612983823,92,65.8252,21.6886,-0.4,2.3
Talnakh,38,RU,1612983823,82,69.4865,88.3972,-13.36,4.85
Tual,100,ID,1612983823,78,-5.6667,132.75,83.21,15.08
Vestmanna,43,FO,1612983824,79,62.1564,-7.1664,21.2,6.53
Aykhal,61,RU,1612983824,85,66.0,111.5,-22.04,6.04
Catuday,78,PH,1612983824,80,16.2923,119.8062,77.43,4.88
Pendências,65,BR,1612983824,52,-5.26,-36.7222,89.89,21.41
Shenjiamen,100,CN,1612983824,90,29.9576,122.298,50.61,11.25
Bülach,75,CH,1612983824,93,47.522,8.5405,27.0,11.5
Longyearbyen,75,SJ,1612983824,72,78.2186,15.6401,10.4,20.71
Sambava,100,MG,1612983824,83,-14.2667,50.1667,78.13,1.16
Stornoway,20,GB,1612983824,64,58.2093,-6.3865,33.01,9.22
Tsogni,100,GA,1612983824,89,-2.7942,10.0988,78.69,3.56
Tuktoyaktuk,1,CA,1612983810,75,69.4541,-133.0374,-31.0,12.66
Port Moresby,20,PG,1612983825,94,-9.4431,147.1797,75.2,5.75
Urdoma,87,RU,1612983825,90,61.7533,48.5442,-12.53,2.59
Amalāpuram,27,IN,1612983825,88,16.5833,82.0167,65.01,0.67
Mumbwa,100,ZM,1612983825,98,-14.9783,27.0619,65.34,3.65
Labuhan,100,ID,1612983825,89,-6.8844,112.2051,77.13,5.21
Yellowknife,20,CA,1612983680,70,62.456,-114.3525,-8.0,8.05
Port Macquarie,72,AU,1612983526,99,-31.4333,152.9167,62.01,4.41
Ancud,0,CL,1612983825,44,-41.8697,-73.8203,82.4,9.22
Upernavik,13,GL,1612983825,92,72.7868,-56.1549,2.39,11.16
Bud,100,US,1612983826,81,39.447,-86.1758,23.0,9.08
Sakakah,0,SA,1612983826,55,29.9697,40.2064,60.8,6.91
Port Hardy,75,CA,1612983644,74,50.6996,-127.4199,32.0,3.44
Port Elizabeth,75,ZA,1612983826,88,-33.918,25.5701,75.2,6.91
Nanortalik,69,GL,1612983826,89,60.1432,-45.2371,25.48,9.13
Gladstone,75,AU,1612983826,68,-23.85,151.25,73.4,5.75
Portland,75,US,1612983192,75,45.5234,-122.6762,42.01,0.89
Harlow,0,GB,1612983827,80,51.7766,0.1116,32.0,6.91
San Patricio,75,US,1612983827,78,28.017,-97.5169,80.6,20.71
Bathsheba,40,BB,1612983827,54,13.2167,-59.5167,84.2,23.02
Kupang,97,ID,1612983827,82,-10.1667,123.5833,78.75,3.15
Saint George,1,US,1612983827,35,37.1041,-113.5841,60.01,3.15
Flinders,31,AU,1612983827,87,-34.5833,150.8552,62.01,1.01
Goba,93,ET,1612983827,81,7.0167,39.9833,53.04,1.68
Waipawa,60,NZ,1612983827,63,-41.4122,175.5153,62.01,13.8
Arlit,44,NE,1612983827,13,18.7369,7.3853,79.05,11.18
Kropotkin,100,RU,1612983827,79,45.4375,40.5756,46.0,9.71
Loa Janan,91,ID,1612983828,97,-0.583,117.095,75.02,1.39
Burns Lake,2,CA,1612983604,68,54.2331,-125.7533,-27.4,1.14
Mahébourg,40,MU,1612983828,74,-20.4081,57.7,80.6,11.5
Verkhnyaya Inta,100,RU,1612983828,87,65.9811,60.3094,-20.49,7.0
Lata,100,PT,1612983828,98,40.1629,-8.3327,57.0,5.01
Qaanaaq,99,GL,1612983828,71,77.484,-69.3632,3.07,11.79
Vila Franca do Campo,20,PT,1612983828,88,37.7167,-25.4333,61.0,19.57
Necochea,47,AR,1612983828,64,-38.5473,-58.7368,73.0,8.01
Clyde River,90,CA,1612983829,92,70.4692,-68.5914,6.8,46.04
Santa Maria,75,BR,1612983829,83,-29.6842,-53.8069,77.0,8.05
Cranbrook,40,CA,1612983616,72,49.4999,-115.7688,3.2,6.91
Balyqshy,90,KZ,1612983829,100,47.0667,51.8667,33.8,6.71
Calamar,40,CO,1612983829,70,10.2511,-74.9146,86.0,12.66
Saint-Joseph,90,RE,1612983829,69,-21.3667,55.6167,80.6,3.44
Don Luan,28,VN,1612983829,93,11.5333,106.9167,71.53,2.17
Morondava,100,MG,1612983830,88,-20.2833,44.2833,77.61,13.44
Rio Tuba,1,PH,1612983830,82,8.5061,117.4317,79.07,5.66
Pochutla,40,MX,1612983830,51,15.7432,-96.4661,88.0,11.5
Ayagoz,100,KZ,1612983830,93,47.9714,80.4392,-1.34,2.13
Skellefteå,20,SE,1612983830,78,64.7507,20.9528,3.0,8.05
Province of Mantua,82,IT,1612983830,94,45.1667,10.7833,46.0,5.01
Souillac,40,MU,1612983816,74,-20.5167,57.5167,80.6,11.5
Castro,57,BR,1612983602,59,-24.7911,-50.0119,74.43,1.57
Beringovskiy,12,RU,1612983831,87,63.05,179.3167,-20.56,12.35
São Filipe,30,CV,1612983831,71,14.8961,-24.4956,72.88,9.46
Poum,0,NC,1612983831,75,-20.2333,164.0167,78.64,15.64
Mossamedes,100,AO,1612983831,74,-15.1961,12.1522,73.94,7.76
Hirara,100,JP,1612983831,84,24.8,125.2833,70.68,23.67
Waycross,90,US,1612983831,100,31.2136,-82.354,66.2,3.65
Karasjok,75,NO,1612983832,79,69.4719,25.5112,21.2,8.05
Pimentel,0,PE,1612983832,48,-6.8367,-79.9342,87.8,9.22
Tiksi,100,RU,1612983832,87,71.6872,128.8694,-14.08,3.44
Eganville,1,CA,1612983832,49,45.5334,-77.0994,21.99,4.61
Saint-Philippe,90,RE,1612983832,69,-21.3585,55.7679,80.6,3.44
Whitehorse,20,CA,1612983832,68,60.7161,-135.0538,-29.2,2.3
Vardø,40,NO,1612983832,63,70.3705,31.1107,23.0,26.46
Diamantino,54,BR,1612983833,53,-14.4086,-56.4461,88.72,2.62
Pamekasan,90,ID,1612983542,87,-7.1568,113.4746,77.67,3.49
Saint-François,90,FR,1612983833,86,46.4154,3.9054,30.99,12.66
Kendari,62,ID,1612983833,90,-3.945,122.4989,76.86,1.72
Linxia Chengguanzhen,100,CN,1612983663,71,35.6003,103.2064,36.61,6.31
Marsh Harbour,0,BS,1612983833,73,26.5412,-77.0636,75.56,9.26
El Alto,20,PE,1612983833,51,-4.2714,-81.2147,87.8,10.36
Wad Medani,0,SD,1612983788,18,14.4012,33.5199,77.4,8.88
Tartagal,90,AR,1612983834,100,-22.5164,-63.8013,66.2,6.91
Cabo San Lucas,1,MX,1612983834,49,22.8909,-109.9124,77.0,11.5
Mar del Plata,40,AR,1612983562,73,-38.0023,-57.5575,71.6,24.16
Salou,20,ES,1612983834,47,41.0766,1.1416,57.99,11.5
Malbork,69,PL,1612983834,87,54.0359,19.0266,18.0,1.01
Adzopé,0,CI,1612983834,71,6.1069,-3.8619,82.33,5.55
Mehamn,75,NO,1612983788,80,71.0357,27.8492,24.8,8.05
Khovd,47,MN,1612983834,56,48.0056,91.6419,12.27,10.56
Kalianget,100,ID,1612983834,83,-7.05,113.9333,78.76,4.85
Katangli,100,RU,1612983834,96,51.7102,143.2326,15.28,15.95
Fukuechō,100,JP,1612983834,52,32.6881,128.8419,53.26,9.51
Sørland,40,NO,1612983834,69,67.667,12.6934,28.4,6.91
Safranbolu,36,TR,1612983742,76,41.2508,32.6942,46.18,1.72
Rovaniemi,75,FI,1612983697,84,66.5,25.7167,-2.2,2.3
Freeport,1,US,1612983677,43,40.6576,-73.5832,33.01,6.91
Nipawin,1,CA,1612983835,57,53.3668,-104.0009,-20.2,8.05
Katsuura,20,JP,1612983835,57,35.1333,140.3,44.6,10.36
Miramar,40,US,1612983835,41,25.9873,-80.2323,82.0,10.36
Narsaq,20,GL,1612983835,25,60.9167,-46.05,33.8,26.46
Chokurdakh,81,RU,1612983835,89,70.6333,147.9167,-11.42,9.66
Lavrentiya,0,RU,1612983835,80,65.5833,-171.0,-27.18,10.13
Mana,84,GF,1612983836,68,5.6592,-53.7767,80.87,10.2
Córdoba,75,AR,1612983836,56,-31.4135,-64.1811,79.0,8.05
Poronaysk,100,RU,1612983836,89,49.2167,143.1167,10.29,6.53
Chapais,90,CA,1612983581,66,49.7834,-74.8492,6.8,6.91
Heyang,39,CN,1612983836,90,26.1011,107.473,44.46,3.38
Krasnosel'kup,100,RU,1612983836,87,65.7,82.4667,-21.6,5.7
Caxito,20,AO,1612983836,74,-8.5785,13.6643,82.4,8.05
Bueno Brandão,80,BR,1612983836,80,-22.4408,-46.3508,70.74,2.75
Humaitá,100,BR,1612983836,82,-7.5061,-63.0208,84.33,1.97
Acajutla,40,SV,1612983837,48,13.5928,-89.8275,86.0,3.44
Norman Wells,40,CA,1612983837,67,65.282,-126.8329,-34.6,6.51
Anūpgarh,0,IN,1612983837,33,29.1911,73.2086,59.31,3.62
Tautira,20,PF,1612983835,69,-17.7333,-149.15,82.0,24.16
Ilhabela,100,BR,1612983676,77,-23.7781,-45.3581,77.5,6.4
Mackenzie,1,CA,1612983837,63,55.2999,-123.1698,-18.4,9.22
Comodoro Rivadavia,0,AR,1612983806,64,-45.8667,-67.5,69.8,4.61
Kamenka,100,RU,1612983837,93,51.3223,42.7678,21.99,4.0
Wyndham,90,US,1612983837,56,37.6985,-77.6125,44.01,4.0
Belaya Gora,1,RU,1612983837,89,68.5333,146.4167,-18.6,0.36
Orocué,2,CO,1612983628,33,4.7912,-71.3354,95.49,12.88
Punta Alta,0,AR,1612983838,37,-38.8759,-62.0736,78.17,17.72
Lakatoro,4,VU,1612983838,77,-16.0999,167.4164,79.77,6.87
Namatanai,98,PG,1612983838,81,-3.6667,152.4333,79.61,3.62
Fort Nelson,90,CA,1612983605,77,58.8053,-122.7002,-7.6,2.3
Ubari,0,LY,1612983838,23,26.5921,12.7805,67.95,11.54
Majene,76,ID,1612983838,84,-3.5403,118.9707,77.95,3.87
Meulaboh,100,ID,1612983838,89,4.1363,96.1285,77.5,4.29
Muriwai Beach,70,NZ,1612983838,87,-36.8167,174.45,63.0,8.03
Skole,100,UA,1612983838,86,49.0372,23.5135,26.01,2.08
Bull Savanna,9,JM,1612983838,62,17.8868,-77.5902,81.1,13.78
Taraz,90,KZ,1612983839,93,42.9,71.3667,33.8,4.47
Baykit,100,RU,1612983839,85,61.67,96.37,-11.61,2.8
Saulkrasti,90,LV,1612983839,85,57.2622,24.4147,12.2,6.91
Iquitos,75,PE,1612983839,59,-3.7481,-73.2472,93.2,8.05
Makkah al Mukarramah,32,SA,1612983839,49,21.4267,39.8261,77.43,2.06
Airai,100,TL,1612983839,100,-8.9266,125.4092,61.09,1.45
Pangkalanbuun,100,ID,1612983839,93,-2.6833,111.6167,74.17,2.35
Villacarrillo,96,ES,1612983839,100,38.1156,-3.0848,57.0,6.53
Hurghada,0,EG,1612983839,46,27.2574,33.8129,71.6,5.75
Saldanha,0,ZA,1612983839,64,-33.0117,17.9442,71.6,10.36
Koshurnikovo,100,RU,1612983840,93,54.1667,93.3,-1.19,0.45
Dina,75,CA,1612983840,63,52.9335,-110.0849,-20.2,17.27
Boa Vista,75,BR,1612983840,38,2.8197,-60.6733,91.4,14.97
Tutóia,75,BR,1612983840,79,-2.7619,-42.2744,84.2,12.66
Iskateley,100,RU,1612983840,90,67.6803,53.1512,-9.76,4.27
Lyuban',100,BY,1612983840,96,52.7985,28.0048,10.58,7.05
Honiara,95,SB,1612983840,82,-9.4333,159.95,78.17,2.26
Atar,0,MR,1612983731,10,20.5169,-13.0499,87.8,11.5
Itarema,86,BR,1612983840,65,-2.9248,-39.9167,84.85,16.42
Tucuruí,97,BR,1612983840,71,-3.7661,-49.6725,85.23,3.0
Pueblo,90,US,1612983803,86,38.2545,-104.6091,19.4,5.75
Khāsh,100,IR,1612983841,40,28.2211,61.2158,51.06,5.95
Paita,0,PE,1612983665,51,-5.0892,-81.1144,87.8,12.66
Hambantota,0,LK,1612983841,88,6.1241,81.1185,73.4,9.22
Fairbanks,75,US,1612983740,65,64.8378,-147.7164,-5.8,3.38
Asău,80,RO,1612983841,67,46.4333,26.4,39.0,0.98
Tufānganj,89,IN,1612983841,43,26.3167,89.6667,65.08,3.31
Languyan,61,PH,1612983841,81,5.2618,120.0807,78.93,1.23
Makakilo City,1,US,1612983842,53,21.3469,-158.0858,73.4,3.44
Port Lincoln,2,AU,1612983842,47,-34.7333,135.8667,75.4,13.2
Laguna,1,US,1612983593,67,38.421,-121.4238,61.0,3.44
Bilma,0,NE,1612983842,17,18.6853,12.9164,73.62,7.74
Turukhansk,94,RU,1612983842,89,65.8167,87.9833,-15.03,7.67
Grand Gaube,1,MU,1612983842,73,-20.0064,57.6608,80.01,8.99
Riachão das Neves,92,BR,1612983842,80,-11.7461,-44.91,80.11,6.55
Torbay,75,CA,1612983797,86,47.6666,-52.7314,28.0,16.11
Pisco,40,PE,1612983843,69,-13.7,-76.2167,77.0,9.22
Erzin,0,TR,1612983843,87,36.9559,36.2,60.01,2.3
Sitka,1,US,1612983843,49,57.0531,-135.33,19.4,7.99
Dandeli,0,IN,1612983843,43,15.2667,74.6167,66.11,2.42
‘Āhuimanu,75,US,1612983843,49,21.4447,-157.8378,73.4,12.66
Deputatsky,9,RU,1612983843,88,69.3,139.9,-23.24,3.38
Selma,1,US,1612983843,82,36.5708,-119.6121,61.0,8.05
Urengoy,100,RU,1612983843,86,65.9667,78.3667,-22.92,9.84
Mahibadhoo,28,MV,1612983721,77,3.7833,72.9667,80.55,10.54
West Wendover,75,US,1612983844,39,40.7391,-114.0733,46.4,4.61
Los Llanos de Aridane,75,ES,1612983844,77,28.6585,-17.9182,66.2,3.44
Omboué,100,GA,1612983844,88,-1.5746,9.2618,79.86,4.32
Chervone,100,UA,1612983844,97,49.9564,28.8645,16.02,3.87
Butaritari,100,KI,1612983844,76,3.0707,172.7902,81.32,15.26
Nuuk,75,GL,1612983844,80,64.1835,-51.7216,26.6,2.3
Constitución,14,CL,1612983844,65,-35.3333,-72.4167,70.65,6.93
Rocky Mountain House,100,CA,1612983805,63,52.3668,-114.9188,-18.4,12.66
Salé,40,MA,1612983845,94,34.0389,-6.8166,61.0,2.17
Novoagansk,100,RU,1612983845,88,61.9449,76.6625,-15.29,12.48
Quatre Cocos,40,MU,1612983845,74,-20.2078,57.7625,80.6,11.5
Hauterive,90,FR,1612983818,86,46.0901,3.4459,33.8,9.22
Basoko,100,CD,1612983845,39,1.2391,23.616,80.49,2.33
Yeniseysk,100,RU,1612983845,90,58.4497,92.1703,-5.64,5.68
Santa Elena,0,EC,1612983845,70,-2.2333,-80.85,84.2,6.91
Barcelos,90,PT,1612983752,93,41.5388,-8.6151,53.01,8.05
Dinghaicun,75,CN,1612983845,88,26.2847,119.7936,55.4,24.61
Mglin,49,RU,1612983846,94,53.0591,32.8475,1.72,7.05
El Vigia,25,VE,1612983846,62,8.6219,-71.6506,84.52,1.9
Yashkino,40,RU,1612983846,70,55.8736,85.4265,-11.0,8.95
Havre-St-Pierre,1,CA,1612983846,48,50.2334,-63.5986,12.2,14.97
Laas,40,IT,1612983846,74,46.6166,10.7002,37.0,8.05
Kailua,75,US,1612983846,49,21.4022,-157.7394,73.4,12.66
Trelew,0,AR,1612983846,19,-43.249,-65.3051,92.44,28.79
Itaituba,90,BR,1612983679,78,-4.2761,-55.9836,82.4,6.91
Mahon,0,ES,1612983846,76,39.8885,4.2658,50.0,4.61
Riberalta,90,BO,1612983847,100,-10.9833,-66.1,73.4,2.13
Pevek,0,RU,1612983847,70,69.7008,170.3133,-13.22,0.34
Severo-Kuril'sk,100,RU,1612983824,88,50.6789,156.125,25.9,6.64
Deqing,100,CN,1612983847,97,30.5448,119.9599,50.0,7.0
Krasnyye Baki,100,RU,1612983847,94,57.131,45.1599,3.51,6.8
Ayan,100,RU,1612983847,90,56.45,138.1667,11.5,14.54
Āsbe Teferī,53,ET,1612983847,46,9.0833,40.8667,60.08,3.29
Plouzané,0,FR,1612983847,74,48.3833,-4.6167,33.8,12.66
Obuasi,2,GH,1612983847,70,6.206,-1.6619,81.12,4.21
Nemuro,42,JP,1612983771,89,43.3236,145.575,22.84,14.23
Trairi,37,BR,1612983847,66,-3.2778,-39.2689,84.96,11.92
Lishu,0,CN,1612983847,92,43.3047,124.3278,20.19,8.55
Sur,23,OM,1612983848,71,22.5667,59.5289,67.32,3.62
Alpena,75,US,1612983848,49,45.0617,-83.4327,19.4,6.91
Codrington,54,AU,1612983848,72,-38.2667,141.9667,63.28,6.6
Tongliao,0,CN,1612983848,93,43.6125,122.2653,23.4,11.97
Paamiut,0,GL,1612983848,83,61.994,-49.6678,22.35,3.85
Kudahuvadhoo,10,MV,1612983848,80,2.6708,72.8944,80.62,10.85
Srednekolymsk,0,RU,1612983848,88,67.45,153.6833,-11.16,2.3
Tura,0,IN,1612983848,41,25.5198,90.2201,61.81,3.02
Río Cuarto,40,AR,1612983848,60,-33.1307,-64.3499,73.0,10.36
Yatou,0,CN,1612983849,78,37.15,122.3833,37.33,2.24
Téra,0,NE,1612983849,13,14.0078,0.7531,82.26,9.17
Balikpapan,42,ID,1612983849,91,-1.2675,116.8289,77.49,3.49
Thabazimbi,1,ZA,1612983849,89,-24.5917,27.4116,71.01,2.35
Koslan,0,RU,1612983849,88,63.4564,48.8989,-16.06,2.39
Rosa Zarate,100,EC,1612983849,78,0.3333,-79.4667,81.75,2.01
Dunedin,100,NZ,1612983849,54,-45.8742,170.5036,57.0,4.0
Coolum Beach,94,AU,1612983849,94,-26.5333,153.1,68.0,1.99
Alugan,8,PH,1612983849,87,12.2188,125.4808,79.5,10.42
Oktyabr'skoye,100,RU,1612983849,81,43.0645,44.7417,41.0,4.47
Tākestān,100,IR,1612983850,46,36.0696,49.6959,50.79,0.63
Eyl,60,SO,1612983730,71,7.9803,49.8164,74.37,19.04
Esperance,40,AU,1612983850,77,-33.8667,121.9,59.0,8.05
Savannah Bight,75,HN,1612983850,58,16.45,-85.85,84.2,9.22
Andrews,90,US,1612983726,100,32.3187,-102.5457,32.0,9.22
Iracoubo,100,GF,1612983851,76,5.4802,-53.2011,79.12,11.43
Meadow Lake,75,US,1612983604,21,34.8014,-106.5436,55.99,3.44
Port Huron,75,US,1612983851,57,42.9709,-82.4249,19.4,3.44
Touros,40,BR,1612983851,66,-5.1989,-35.4608,86.0,17.27
Husavik,75,IS,1612983851,92,66.0449,-17.3389,15.8,3.44
Flin Flon,20,CA,1612983852,69,54.7682,-101.865,-23.8,3.44
Sfântu Gheorghe,100,RO,1612983852,77,45.8667,25.7833,48.0,1.99
Goderich,100,CA,1612983738,62,43.7501,-81.7165,17.6,10.36
Hamilton,90,US,1612983774,80,39.1834,-84.5333,23.0,9.22
Jutaí,99,BR,1612983852,72,-5.1833,-68.9,87.13,1.99
Richards Bay,83,ZA,1612983852,84,-28.783,32.0377,76.8,5.41
Florence,75,IT,1612983852,82,43.7667,11.25,53.01,4.61
La Ronge,1,CA,1612983852,57,55.1001,-105.2842,-20.2,3.44
Drayton Valley,100,CA,1612983655,72,53.2168,-114.9854,-18.0,15.01
Boguchany,95,RU,1612983852,89,58.3814,97.4531,-4.45,3.89
Jalu,0,LY,1612983852,27,29.0331,21.5482,61.52,7.43
Jining,0,CN,1612983853,66,35.405,116.5814,42.39,6.22
Port Hedland,40,AU,1612983853,89,-20.3167,118.5667,80.6,6.91
São João da Barra,20,BR,1612983717,54,-21.6403,-41.0511,84.2,13.8
San Quintín,6,MX,1612983853,62,30.4833,-115.95,58.37,12.93
Calvinia,0,ZA,1612983853,17,-31.4707,19.776,81.27,6.78
Juneau,1,US,1612983853,43,58.3019,-134.4197,8.6,3.44
Tessalit,0,ML,1612983853,16,20.1986,1.0114,76.15,9.42
Garoowe,49,SO,1612983853,45,8.4054,48.4845,70.02,17.38
Ponta Delgada,20,PT,1612983572,88,37.7333,-25.6667,61.0,19.57
Bibiani,0,GH,1612983618,66,6.4635,-2.3194,81.66,4.27
Ayní,41,TJ,1612983854,71,39.3941,68.5377,36.0,7.7
Ketchikan,1,US,1612983854,45,55.3422,-131.6461,21.2,4.61
Alice Springs,40,AU,1612983854,61,-23.7,133.8833,87.01,6.91
Agadez,92,NE,1612983854,20,19.75,10.25,69.03,4.14
Virginia Beach,90,US,1612983825,65,36.8529,-75.978,43.0,9.22
Cabedelo,75,BR,1612983854,66,-6.9811,-34.8339,86.0,14.97
Iqaluit,75,CA,1612983670,79,63.7506,-68.5145,12.2,2.3
Lerwick,20,GB,1612983854,75,60.1545,-1.1494,33.8,5.75
Lida,100,BY,1612983855,95,53.8833,25.2997,7.9,7.45
Manokwari,100,ID,1612983661,79,-0.8667,134.0833,79.34,4.45
Sola,8,VU,1612983670,76,-13.8833,167.55,81.82,12.06
Belmonte,40,BR,1612983855,61,-15.8631,-38.8828,82.4,14.97
Mwanza,40,TZ,1612983855,88,-2.5167,32.9,71.6,9.22
Bonavista,97,CA,1612983855,74,48.6499,-53.1147,28.0,6.91
Upington,75,ZA,1612983730,68,-28.4478,21.2561,73.4,28.77
Gamba,100,GA,1612983855,87,-2.65,10.0,79.29,4.79
Atarra,4,IN,1612983855,51,25.2833,80.5667,61.99,5.1
Turochak,100,RU,1612983856,89,52.2576,87.1224,-5.75,4.54
Marawi,92,PH,1612983856,93,7.9986,124.2928,73.99,5.99
Namie,50,JP,1612983844,89,37.4833,141.0,35.01,8.93
Birnin Kebbi,0,NG,1612983856,14,12.4539,4.1975,83.39,9.35
Bushehr,1,IR,1612983856,59,28.9684,50.8385,64.4,9.22
Venado Tuerto,32,AR,1612983703,41,-33.7456,-61.9688,78.01,5.01
Lowestoft,98,GB,1612983856,89,52.4752,1.7516,28.99,1.01
Waddān,0,LY,1612983856,22,29.1614,16.139,67.96,7.67
Zarubino,0,RU,1612983856,94,42.63,131.0922,22.05,7.27
Locri,75,IT,1612983856,82,38.2414,16.2623,59.0,5.75
Council Bluffs,75,US,1612983856,52,41.2619,-95.8608,16.0,11.5
Klaksvík,33,FO,1612983857,79,62.2266,-6.589,21.2,7.0
Kayerkan,0,RU,1612983857,81,69.3497,87.7602,-15.27,5.17
Chenghai,75,CN,1612983857,94,23.4632,116.768,59.0,2.24
Winnemucca,75,US,1612983857,49,40.973,-117.7357,46.4,8.05
Florianópolis,40,BR,1612983722,61,-27.6146,-48.5012,82.4,13.8
Mandalgovi,95,MN,1612983857,85,45.7625,106.2708,25.93,20.6
Alta Floresta,75,BR,1612983857,71,-9.8756,-56.0861,84.88,2.1
Sambir,100,UA,1612983857,86,49.5183,23.1975,26.01,6.24
Kochi,100,IN,1612983718,83,9.9399,76.2602,73.4,4.76
Vila Velha,20,BR,1612983857,65,-20.3297,-40.2925,84.2,11.5
Carman,100,CA,1612983857,58,49.4992,-98.0016,-11.2,8.05
Vao,12,NC,1612983858,82,-22.6667,167.4833,76.28,9.19
Olinda,75,BR,1612983858,69,-8.0089,-34.8553,82.4,10.36
Anadyr,0,RU,1612983858,70,64.75,177.4833,-11.2,2.24
Pozo Colorado,11,PY,1612983858,42,-23.4923,-58.7972,87.93,7.09
Emerald,75,AU,1612983858,88,-23.5333,148.1667,73.4,6.91
Boyuibe,90,BO,1612983858,94,-20.4167,-63.2833,66.2,5.95
Vrangel',0,RU,1612983858,91,42.7297,133.0839,21.61,7.49
Madan,69,BG,1612983753,71,41.5,24.95,53.01,5.75
Kahului,40,US,1612983858,64,20.8947,-156.47,73.4,12.66
Madang,99,PG,1612983859,90,-5.2246,145.7966,75.76,6.58
Tarakan,20,ID,1612983859,84,3.3,117.6333,78.66,5.79
Kasongo-Lunda,99,CD,1612983859,84,-6.4667,16.8167,73.85,1.59
Casablanca,0,MA,1612983680,77,33.5928,-7.6192,62.6,6.91
Soyo,100,AO,1612983859,80,-6.1349,12.3689,80.83,6.17
Broken Hill,0,AU,1612983859,34,-31.95,141.4333,80.6,16.11
Egvekinot,6,RU,1612983859,81,66.3167,-179.1667,-27.02,14.25
Orotukan,100,RU,1612983859,89,62.2667,151.7,-7.17,1.52
Lozuvatka,90,UA,1612983859,86,48.0571,33.2858,33.8,6.71
Newport,0,GB,1612983859,75,51.5877,-2.9984,33.01,14.05
Korla,100,CN,1612983859,72,41.7597,86.1469,35.38,12.71
Faranah,0,GN,1612983859,15,10.0404,-10.7434,86.97,4.32
Rafaela,100,AR,1612983621,46,-31.2503,-61.4867,82.0,5.01
Vallenar,0,CL,1612983860,25,-28.5708,-70.7581,87.57,11.45
Ugoofaaru,0,MV,1612983860,65,5.6667,73.0,81.25,5.95
Porto Seguro,40,BR,1612983860,61,-16.4497,-39.0647,82.4,14.97
Trat,100,TH,1612983860,64,12.5,102.5,72.79,4.21
Lompoc,1,US,1612983646,76,34.6391,-120.4579,64.0,10.42
Laguna de Duero,0,ES,1612983860,71,41.5815,-4.7233,46.4,10.36
Jumla,0,NP,1612983860,75,29.2747,82.1838,36.03,4.47
Sibolga,48,ID,1612983860,83,1.7427,98.7792,77.88,3.27
Grants,75,US,1612983860,18,35.1473,-107.8514,50.0,12.66
Ihosy,100,MG,1612983861,91,-22.4,46.1167,66.79,9.69
Tuy Hoa,97,VN,1612983861,84,13.0833,109.3,69.94,8.63
Kumul,99,CN,1612983861,82,42.8,93.45,30.4,7.16
Vokhtoga,51,RU,1612983861,92,58.8147,41.0461,-5.6,4.81
Caconda,100,AO,1612983577,60,-13.7333,15.0667,65.14,7.34
Chesterton,90,US,1612983847,73,41.6106,-87.0642,21.0,3.44
Shelburne,100,CA,1612983861,72,44.0787,-80.2041,21.0,10.78
Berlevåg,75,NO,1612983611,63,70.8578,29.0864,19.4,20.71
Mogadishu,63,SO,1612983861,77,2.0371,45.3438,77.54,24.36
Kantābānji,0,IN,1612983861,31,20.4833,82.9167,62.96,2.35
Luganville,0,VU,1612983670,79,-15.5333,167.1667,76.28,2.77
Zhigansk,0,RU,1612983862,84,66.7697,123.3711,-19.61,10.85
Moerai,77,PF,1612983862,63,-22.4333,-151.3333,81.46,7.94
Ust'-Kut,13,RU,1612983862,89,56.7938,105.7672,-5.51,1.36
Bubaque,56,GW,1612983862,77,11.2833,-15.8333,77.54,15.17
Salisbury,0,GB,1612983862,69,51.0693,-1.7957,32.0,9.22
Bukene,100,TZ,1612983862,91,-4.2333,32.8833,66.88,3.31
Westerland,35,DE,1612983862,74,54.9079,8.3033,24.01,9.22
Kenai,90,US,1612983862,79,60.5544,-151.2583,15.01,10.36
Khatanga,98,RU,1612983863,85,71.9667,102.5,-15.65,5.68
Lengshuijiang,97,CN,1612983863,90,27.6881,111.4294,49.05,2.42
Coahuayana Viejo,40,MX,1612983863,47,18.7333,-103.6833,80.6,6.67
Kidal,0,ML,1612983863,16,18.4411,1.4078,75.78,5.23
Honningsvåg,75,NO,1612983863,80,70.9821,25.9704,24.8,8.05
Lázaro Cárdenas,0,MX,1612983863,58,17.9583,-102.2,81.19,8.9
Fortuna,1,US,1612983828,81,40.5982,-124.1573,55.99,3.98
Sribne,94,UA,1612983863,96,50.6638,32.9187,9.97,6.82
Guerrero Negro,90,MX,1612983863,61,27.9769,-114.0611,60.62,15.17
Fort Frances,90,CA,1612983863,54,48.5999,-93.4003,-7.01,10.36
Chinchani,91,IN,1612983863,46,19.8667,72.7,72.61,3.2
Chara,100,RU,1612983864,91,56.9064,118.2631,15.48,3.06
Konitsa,79,GR,1612983864,76,40.0486,20.7567,50.0,4.61
Konëvo,1,RU,1612983864,90,62.1215,39.3192,-8.84,3.02
Hobyo,89,SO,1612983864,75,5.3505,48.5268,77.67,20.96
Stromness,20,GB,1612983864,74,58.965,-3.296,26.6,4.61
Mount Gambier,28,AU,1612983629,63,-37.8333,140.7667,64.4,6.91
Acarí,84,PE,1612983864,49,-15.4311,-74.6158,82.85,11.65
Pāvilosta,90,LV,1612983864,85,56.8879,21.1859,17.6,5.75
Tieli,85,CN,1612983864,94,46.95,128.05,7.27,4.25
Tshikapa,100,CD,1612983864,86,-6.4167,20.8,73.99,1.28
Takoradze,43,GH,1612983865,83,4.8845,-1.7554,81.36,11.39
Lins,84,BR,1612983865,59,-21.6786,-49.7425,82.49,4.61
Goma,100,CD,1612983810,74,-1.6792,29.2228,66.56,3.38
Walvis Bay,100,NA,1612983865,82,-22.9575,14.5053,66.99,9.22
Loksa,0,EE,1612983865,85,59.5764,25.7214,6.8,3.44
Banda Aceh,36,ID,1612983639,79,5.5577,95.3222,78.93,5.32
Tilichiki,100,RU,1612983865,91,60.4667,166.1,-6.45,10.49
Maralal,92,KE,1612983865,71,1.0968,36.698,61.97,5.86
Béboto,56,TD,1612983865,16,8.2668,16.939,76.98,1.12
Mastic Beach,1,US,1612983865,47,40.7668,-72.8521,34.0,5.75
Donji Vakuf,100,BA,1612983866,80,44.1436,17.4,46.89,5.03
Magistral'nyy,96,RU,1612983866,91,56.1725,107.4458,-0.94,2.3
Guia Lopes da Laguna,99,BR,1612983866,50,-21.4578,-56.1142,84.67,4.43
Okhotsk,100,RU,1612983866,92,59.3833,143.3,22.6,23.98
Chișinău,90,MD,1612983866,93,47.0056,28.8575,37.4,6.91
Westport,1,US,1612983866,55,41.1415,-73.3579,33.01,8.05
Nova Venécia,25,BR,1612983696,70,-18.7106,-40.4006,82.58,7.2
Paraná,100,AR,1612983866,61,-31.732,-60.5238,82.0,3.0
Marinette,90,US,1612983866,52,45.1,-87.6307,8.6,5.75
Rawson,0,AR,1612983866,25,-43.3002,-65.1023,86.07,29.44
Beloha,100,MG,1612983867,85,-25.1667,45.05,71.4,14.23
Menongue,100,AO,1612983868,66,-14.6585,17.691,66.49,2.57
Angoche,100,MZ,1612983868,85,-16.2325,39.9086,79.81,7.0
Zabul Province,31,AF,1612983868,57,32.25,67.25,43.41,7.43
San Vicente,69,AR,1612983868,56,-26.6167,-54.1333,76.14,5.46
Murgab,0,TM,1612983868,47,37.4966,61.9714,53.6,9.22
Chissamba,100,AO,1612983868,86,-12.1667,17.3333,66.36,4.43
San Rafael del Sur,20,NI,1612983868,55,11.8485,-86.4384,89.6,11.5
Marquette,99,US,1612983868,54,46.5333,-87.6335,10.99,6.98
Honolulu,20,US,1612983869,46,21.3069,-157.8583,73.4,8.05
Grindavik,75,IS,1612983869,80,63.8424,-22.4338,35.6,11.5
Kodinsk,99,RU,1612983869,88,58.6881,99.1844,-6.02,3.38
Aspindza,84,GE,1612983869,74,41.5739,43.2483,38.34,3.71
Tiarei,20,PF,1612983869,69,-17.5333,-149.3333,82.0,24.16
Goulouré,0,BF,1612983869,8,12.2306,-1.9289,95.0,10.36
Mapastepec,3,MX,1612983870,43,15.4333,-92.9,90.93,9.93
Great Bend,1,US,1612983870,67,38.3645,-98.7648,16.0,13.8
Chandler,75,US,1612983756,19,33.3062,-111.8412,71.01,5.26
Port-Gentil,20,GA,1612983870,79,-0.7193,8.7815,84.2,8.05
Greenville,90,US,1612983626,50,35.6127,-77.3663,53.01,8.05
Petropavlovsk-Kamchatskiy,100,RU,1612983600,85,53.0452,158.6483,12.2,6.71
Marsá Maţrūḩ,0,EG,1612983870,72,31.3525,27.2453,59.0,3.44
Hornepayne,100,CA,1612983669,84,49.2138,-84.7705,-3.73,4.94
Usakos,100,NA,1612983870,72,-22.0,15.6,72.19,9.82
Payson,90,US,1612983870,70,40.0444,-111.7321,44.6,4.61
Vostok,75,RU,1612983870,92,46.4856,135.8833,-3.64,4.63
Price,90,US,1612983593,70,39.5994,-110.8107,41.0,3.44
Mbigou,100,GA,1612983871,93,-1.9005,11.906,71.19,1.16
Abhā,0,SA,1612983871,51,18.2164,42.5053,57.2,4.61
Juba,83,SS,1612983871,24,4.8517,31.5825,89.8,4.54
Turinsk,1,RU,1612983871,88,58.0458,63.696,-20.22,4.23
Djibouti,1,DJ,1612983871,65,11.5,42.5,77.0,3.44
Qiongshan,75,CN,1612983871,88,20.0058,110.3542,62.6,8.95
Lokosovo,100,RU,1612983871,87,61.1333,74.8167,-19.84,11.68
Rawlins,1,US,1612983871,48,41.7911,-107.2387,37.4,23.02
